[
    {
        "title": "Ставрополь (к.п.)",
        "elevation": 514,
        "lat": 45.049,
        "lon": 41.956
    },
    {
        "title": "Индюк (поселок, станция кр.кр)",
        "elevation": 135,
        "lat": 44.22635062731316,
        "lon": 39.242434501647956
    },
    {
        "title": "Казьминское (ист)",
        "elevation": 472,
        "lat": 44.58,
        "lon": 41.65
    },
    {
        "title": "Адлер",
        "elevation": 7,
        "lat": 43.39646,
        "lon": 39.97040
    },
    {
        "title": "Сочи",
        "elevation": 10,
        "lat": 43.57782,
        "lon": 39.72106
    },
    {
        "title": "Роза Хутор",
        "elevation": 544,
        "lat": 43.676,
        "lon": 40.283
    },
    {
        "title": "Архыз (банные п.)",
        "elevation": 1555,
        "lat": 43.52359,
        "lon": 41.23145
    },
    {
        "title": "Домбай",
        "elevation": 1593,
        "lat": 43.29091,
        "lon": 41.62691
    },
    {
        "title": "Теберда",
        "elevation": 1366,
        "lat": 43.441,
        "lon": 41.743
    },
    {
        "title": "Шхельда Адыл су",
        "elevation": 1948,
        "lat": 43.229,
        "lon": 42.654
    },
    {
        "title": "Ангарский перевал",
        "elevation": 770,
        "lat": 44.757,
        "lon": 34.344
    },
    {
        "title": "Судак",
        "elevation": 0,
        "lat": 44.83977,
        "lon": 34.9157
    },
    {
        "title": "Новый Свет",
        "elevation": 40,
        "lat": 44.832111954672555,
        "lon": 34.91620302
    },
    {
        "title": "Ялта",
        "elevation": 0,
        "lat": 44.49444,
        "lon": 34.15374
    },
    {
        "title": "Ласпи",
        "elevation": 0,
        "lat": 44.41270,
        "lon": 33.71343
    },
    {
        "title": "Форос",
        "elevation": 0,
        "lat": 44.39223,
        "lon": 33.79233
    },
    {
        "title": "Севастополь",
        "elevation": 0,
        "lat": 44.63154,
        "lon": 33.51329
    },
    {
        "title": "Алушта",
        "elevation": 0,
        "lat": 44.67144,
        "lon": 34.41246
    },
    {
        "title": "г.Эльбрус",
        "elevation": 5642,
        "lat": 43.35239,
        "lon": 42.438
    },
    {
        "title": "г.Эльбрус приют 11",
        "elevation": 4200,
        "lat": 43.31331,
        "lon": 42.45949
    },
    {
        "title": "г.Эльбрус  п.Азау",
        "elevation": 2297,
        "lat": 43.26455,
        "lon": 42.48374
    }
]