[
    {
        "title": "Ставрополь (к.п.)",
        "value": {
            "label": "Ставрополь(к.п.)",
            "heigth": "600",
            "lat": 45.05,
            "lon": 41.95
        }
    },
    {
        "title": "Казьминское (г.)",
        "value": {
            "label": "Казьминское (г.)",
            "heigth": "0",
            "lat": 44.58,
            "lon": 41.65
        }
    },
    {
        "title": "Адлер",
        "value": {
            "label": "Адлер",
            "heigth": "0",
            "lat": 43.39646,
            "lon": 39.97040
        }
    },
    {
        "title": "Сочи",
        "value": {
            "label": "Сочи",
            "heigth": "0",
            "lat": 43.57782,
            "lon": 39.72106
        }
    },
    {
        "title": "Архыз",
        "value": {
            "label": "Архыз",
            "heigth": "1700",
            "lat": 43.52359,
            "lon": 41.23145
        }
    },
    {
        "title": "Домбай",
        "value": {
            "label": "Домбай",
            "heigth": "1700",
            "lat": 43.29091,
            "lon": 41.62691
        }
    },
    {
        "title": "Судак",
        "value": {
            "label": "Судак",
            "heigth": "0",
            "lat": 44.83977,
            "lon": 34.9157
        }
    },
    {
        "title": "Новый Свет",
        "value": {
            "label": "Новый Свет",
            "heigth": "0",
            "lat": 44.8317,
            "lon": 34.9157
        }
    },
    {
        "title": "Ялта",
        "value": {
            "label": "Ялта",
            "heigth": "0",
            "lat": 44.49444,
            "lon": 34.15374
        }
    },
    {
        "title": "Ласпи",
        "value": {
            "label": "Ласпи",
            "heigth": "0",
            "lat": 44.41270,
            "lon": 33.71343
        }
    },
    {
        "title": "Форос",
        "value": {
            "label": "Форос",
            "heigth": "0",
            "lat": 44.39223,
            "lon": 33.79233
        }
    },
    {
        "title": "Севастополь",
        "value": {
            "label": "Севастополь",
            "heigth": "0",
            "lat": 44.63154,
            "lon": 33.51329
        }
    },
    {
        "title": "Алушта",
        "value": {
            "label": "Алушта",
            "heigth": "0",
            "lat": 44.67144,
            "lon": 34.41246
        }
    },
    {
        "title": "г.Эльбрус",
        "value": {
            "label": "г.Эльбрус",
            "heigth": "5642",
            "lat": 43.35239,
            "lon": 42.438
        }
    },
    {
        "title": "г.Эльбрус приют 11",
        "value": {
            "label": "г.Эльбрус приют 11",
            "heigth": "4200",
            "lat": 43.31331,
            "lon": 42.45949
        }
    },
    {
        "title": "г.Эльбрус п.Азау",
        "value": {
            "label": "г.Эльбрус  п.Азау",
            "heigth": "1700",
            "lat": 43.26455,
            "lon": 42.48374
        }
    }
]